{
"type": "FeatureCollection",
"name": "FreeBSD_committers",
"crs": { "type": "name", "properties": { "name": "urn:ogc:def:crs:OGC:1.3:CRS84" } },
"features": [
{ "type": "Feature", "properties": { "name": "thompsa" }, "geometry": { "type": "Point", "coordinates": [ 174.8870, -41.2124 ] } },
{ "type": "Feature", "properties": { "name": "edwin" }, "geometry": { "type": "Point", "coordinates": [ 151.117163, -34.045657 ] } },
{ "type": "Feature", "properties": { "name": "bde" }, "geometry": { "type": "Point", "coordinates": [ 151.1, -33.55 ] } },
{ "type": "Feature", "properties": { "name": "jb" }, "geometry": { "type": "Point", "coordinates": [ 144.9, -37.7 ] } },
{ "type": "Feature", "properties": { "name": "benno" }, "geometry": { "type": "Point", "coordinates": [ 144.9, -37.7 ] } },
{ "type": "Feature", "properties": { "name": "grog" }, "geometry": { "type": "Point", "coordinates": [ 143.751219, -37.800152 ] } },
{ "type": "Feature", "properties": { "name": "metal" }, "geometry": { "type": "Point", "coordinates": [ 139.92, 35.69 ] } },
{ "type": "Feature", "properties": { "name": "motoyuki" }, "geometry": { "type": "Point", "coordinates": [ 139.785, 35.707 ] } },
{ "type": "Feature", "properties": { "name": "rushani" }, "geometry": { "type": "Point", "coordinates": [ 139.716, 35.561 ] } },
{ "type": "Feature", "properties": { "name": "kuriyama" }, "geometry": { "type": "Point", "coordinates": [ 139.69288, 35.65757 ] } },
{ "type": "Feature", "properties": { "name": "bland" }, "geometry": { "type": "Point", "coordinates": [ 139.688, 35.593 ] } },
{ "type": "Feature", "properties": { "name": "suz" }, "geometry": { "type": "Point", "coordinates": [ 139.67, 35.55 ] } },
{ "type": "Feature", "properties": { "name": "sumikawa" }, "geometry": { "type": "Point", "coordinates": [ 139.67, 35.55 ] } },
{ "type": "Feature", "properties": { "name": "tanimura" }, "geometry": { "type": "Point", "coordinates": [ 139.67, 35.16 ] } },
{ "type": "Feature", "properties": { "name": "tota" }, "geometry": { "type": "Point", "coordinates": [ 139.65, 35.64 ] } },
{ "type": "Feature", "properties": { "name": "onoe" }, "geometry": { "type": "Point", "coordinates": [ 139.621633, 35.342838 ] } },
{ "type": "Feature", "properties": { "name": "knu" }, "geometry": { "type": "Point", "coordinates": [ 139.6, 35.7 ] } },
{ "type": "Feature", "properties": { "name": "simokawa" }, "geometry": { "type": "Point", "coordinates": [ 139.6, 35.7 ] } },
{ "type": "Feature", "properties": { "name": "tagattie" }, "geometry": { "type": "Point", "coordinates": [ 139.59, 35.59 ] } },
{ "type": "Feature", "properties": { "name": "max" }, "geometry": { "type": "Point", "coordinates": [ 139.567, 35.650 ] } },
{ "type": "Feature", "properties": { "name": "nyan" }, "geometry": { "type": "Point", "coordinates": [ 139.53, 35.54 ] } },
{ "type": "Feature", "properties": { "name": "ume" }, "geometry": { "type": "Point", "coordinates": [ 139.53, 35.54 ] } },
{ "type": "Feature", "properties": { "name": "shige" }, "geometry": { "type": "Point", "coordinates": [ 139.31, 35.38 ] } },
{ "type": "Feature", "properties": { "name": "daichi" }, "geometry": { "type": "Point", "coordinates": [ 139.31, 35.36 ] } },
{ "type": "Feature", "properties": { "name": "sanpei" }, "geometry": { "type": "Point", "coordinates": [ 139.28240, 35.37200 ] } },
{ "type": "Feature", "properties": { "name": "markp" }, "geometry": { "type": "Point", "coordinates": [ 138.35, -34.53 ] } },
{ "type": "Feature", "properties": { "name": "benjsc" }, "geometry": { "type": "Point", "coordinates": [ 138.35, -34.53 ] } },
{ "type": "Feature", "properties": { "name": "takawata" }, "geometry": { "type": "Point", "coordinates": [ 135.75497, 35.009668 ] } },
{ "type": "Feature", "properties": { "name": "yoichi" }, "geometry": { "type": "Point", "coordinates": [ 135.51, 34.60 ] } },
{ "type": "Feature", "properties": { "name": "maho" }, "geometry": { "type": "Point", "coordinates": [ 135.47, 35.0 ] } },
{ "type": "Feature", "properties": { "name": "matusita" }, "geometry": { "type": "Point", "coordinates": [ 135.26, 34.47 ] } },
{ "type": "Feature", "properties": { "name": "fluffy" }, "geometry": { "type": "Point", "coordinates": [ 135.07563, 48.24138 ] } },
{ "type": "Feature", "properties": { "name": "flathill" }, "geometry": { "type": "Point", "coordinates": [ 130.255625, 33.334370 ] } },
{ "type": "Feature", "properties": { "name": "avl" }, "geometry": { "type": "Point", "coordinates": [ 127.554703, 50.260369 ] } },
{ "type": "Feature", "properties": { "name": "cjh" }, "geometry": { "type": "Point", "coordinates": [ 126.98, 37.56 ] } },
{ "type": "Feature", "properties": { "name": "yongari" }, "geometry": { "type": "Point", "coordinates": [ 126.98, 37.56 ] } },
{ "type": "Feature", "properties": { "name": "perky" }, "geometry": { "type": "Point", "coordinates": [ 126.93098, 37.56587 ] } },
{ "type": "Feature", "properties": { "name": "clsung" }, "geometry": { "type": "Point", "coordinates": [ 121.614, 25.041 ] } },
{ "type": "Feature", "properties": { "name": "loader" }, "geometry": { "type": "Point", "coordinates": [ 121.5, 31.2 ] } },
{ "type": "Feature", "properties": { "name": "avatar" }, "geometry": { "type": "Point", "coordinates": [ 121.450, 25.017 ] } },
{ "type": "Feature", "properties": { "name": "clive" }, "geometry": { "type": "Point", "coordinates": [ 121.450, 25.017 ] } },
{ "type": "Feature", "properties": { "name": "foxfair" }, "geometry": { "type": "Point", "coordinates": [ 121.450, 25.017 ] } },
{ "type": "Feature", "properties": { "name": "kevlo" }, "geometry": { "type": "Point", "coordinates": [ 121.450, 25.017 ] } },
{ "type": "Feature", "properties": { "name": "vanilla" }, "geometry": { "type": "Point", "coordinates": [ 121.450, 25.017 ] } },
{ "type": "Feature", "properties": { "name": "leeym" }, "geometry": { "type": "Point", "coordinates": [ 121.450, 25.017 ] } },
{ "type": "Feature", "properties": { "name": "rafan" }, "geometry": { "type": "Point", "coordinates": [ 121.450, 25.017 ] } },
{ "type": "Feature", "properties": { "name": "chinsan" }, "geometry": { "type": "Point", "coordinates": [ 121.450, 25.017 ] } },
{ "type": "Feature", "properties": { "name": "ijliao" }, "geometry": { "type": "Point", "coordinates": [ 121.450, 25.017 ] } },
{ "type": "Feature", "properties": { "name": "lwhsu" }, "geometry": { "type": "Point", "coordinates": [ 121.450, 25.017 ] } },
{ "type": "Feature", "properties": { "name": "sunpoet" }, "geometry": { "type": "Point", "coordinates": [ 121.450, 25.017 ] } },
{ "type": "Feature", "properties": { "name": "yzlin" }, "geometry": { "type": "Point", "coordinates": [ 120.997286, 24.787313 ] } },
{ "type": "Feature", "properties": { "name": "pclin" }, "geometry": { "type": "Point", "coordinates": [ 120.997286, 24.787313 ] } },
{ "type": "Feature", "properties": { "name": "dryice" }, "geometry": { "type": "Point", "coordinates": [ 120.19, 36.6 ] } },
{ "type": "Feature", "properties": { "name": "davidxu" }, "geometry": { "type": "Point", "coordinates": [ 120.1662, 30.2727 ] } },
{ "type": "Feature", "properties": { "name": "nemoliu" }, "geometry": { "type": "Point", "coordinates": [ 116.214, 39.550 ] } },
{ "type": "Feature", "properties": { "name": "lawrance" }, "geometry": { "type": "Point", "coordinates": [ 115.912435, -31.928982 ] } },
{ "type": "Feature", "properties": { "name": "woodsb02" }, "geometry": { "type": "Point", "coordinates": [ 115.855, -31.900 ] } },
{ "type": "Feature", "properties": { "name": "adrian" }, "geometry": { "type": "Point", "coordinates": [ 115.81611, -31.97908 ] } },
{ "type": "Feature", "properties": { "name": "wen" }, "geometry": { "type": "Point", "coordinates": [ 113.80578, 22.80346 ] } },
{ "type": "Feature", "properties": { "name": "vs" }, "geometry": { "type": "Point", "coordinates": [ 113.549, 22.1957 ] } },
{ "type": "Feature", "properties": { "name": "ganbold" }, "geometry": { "type": "Point", "coordinates": [ 106.910153, 47.921386 ] } },
{ "type": "Feature", "properties": { "name": "ariff" }, "geometry": { "type": "Point", "coordinates": [ 101.700, 3.167 ] } },
{ "type": "Feature", "properties": { "name": "miwi" }, "geometry": { "type": "Point", "coordinates": [ 101.669, 3.130 ] } },
{ "type": "Feature", "properties": { "name": "danfe" }, "geometry": { "type": "Point", "coordinates": [ 82.917, 55.033 ] } },
{ "type": "Feature", "properties": { "name": "fjoe" }, "geometry": { "type": "Point", "coordinates": [ 82.917, 55.033 ] } },
{ "type": "Feature", "properties": { "name": "jkoshy" }, "geometry": { "type": "Point", "coordinates": [ 78.4552, 13.6325 ] } },
{ "type": "Feature", "properties": { "name": "ashish" }, "geometry": { "type": "Point", "coordinates": [ 77.314412, 28.599623 ] } },
{ "type": "Feature", "properties": { "name": "bp" }, "geometry": { "type": "Point", "coordinates": [ 76.851597, 43.219564 ] } },
{ "type": "Feature", "properties": { "name": "mmokhi" }, "geometry": { "type": "Point", "coordinates": [ 51.54698, 35.72689 ] } },
{ "type": "Feature", "properties": { "name": "novel" }, "geometry": { "type": "Point", "coordinates": [ 46.00, 51.33 ] } },
{ "type": "Feature", "properties": { "name": "den" }, "geometry": { "type": "Point", "coordinates": [ 44.586, 48.805 ] } },
{ "type": "Feature", "properties": { "name": "sem" }, "geometry": { "type": "Point", "coordinates": [ 37.830851, 55.740978 ] } },
{ "type": "Feature", "properties": { "name": "az" }, "geometry": { "type": "Point", "coordinates": [ 37.8, 55.7 ] } },
{ "type": "Feature", "properties": { "name": "zont" }, "geometry": { "type": "Point", "coordinates": [ 37.784919, 55.702594 ] } },
{ "type": "Feature", "properties": { "name": "marck" }, "geometry": { "type": "Point", "coordinates": [ 37.691646, 55.795636 ] } },
{ "type": "Feature", "properties": { "name": "amdmi3" }, "geometry": { "type": "Point", "coordinates": [ 37.680909, 55.869236 ] } },
{ "type": "Feature", "properties": { "name": "glebius" }, "geometry": { "type": "Point", "coordinates": [ 37.654288, 55.709525 ] } },
{ "type": "Feature", "properties": { "name": "dchagin" }, "geometry": { "type": "Point", "coordinates": [ 37.635261, 55.7895 ] } },
{ "type": "Feature", "properties": { "name": "ache" }, "geometry": { "type": "Point", "coordinates": [ 37.6, 55.8 ] } },
{ "type": "Feature", "properties": { "name": "bsam" }, "geometry": { "type": "Point", "coordinates": [ 37.6, 55.8 ] } },
{ "type": "Feature", "properties": { "name": "demon" }, "geometry": { "type": "Point", "coordinates": [ 37.6, 55.8 ] } },
{ "type": "Feature", "properties": { "name": "maxim" }, "geometry": { "type": "Point", "coordinates": [ 37.6, 55.8 ] } },
{ "type": "Feature", "properties": { "name": "rik" }, "geometry": { "type": "Point", "coordinates": [ 37.6, 55.8 ] } },
{ "type": "Feature", "properties": { "name": "skv" }, "geometry": { "type": "Point", "coordinates": [ 37.6, 55.8 ] } },
{ "type": "Feature", "properties": { "name": "vsevolod" }, "geometry": { "type": "Point", "coordinates": [ 37.6, 55.8 ] } },
{ "type": "Feature", "properties": { "name": "yar" }, "geometry": { "type": "Point", "coordinates": [ 37.6, 55.8 ] } },
{ "type": "Feature", "properties": { "name": "sergei" }, "geometry": { "type": "Point", "coordinates": [ 37.588938, 55.768764 ] } },
{ "type": "Feature", "properties": { "name": "sat" }, "geometry": { "type": "Point", "coordinates": [ 37.4314, 55.7203 ] } },
{ "type": "Feature", "properties": { "name": "mav" }, "geometry": { "type": "Point", "coordinates": [ 35.046111, 48.464722 ] } },
{ "type": "Feature", "properties": { "name": "phantom" }, "geometry": { "type": "Point", "coordinates": [ 34.1, 44.95 ] } },
{ "type": "Feature", "properties": { "name": "ru" }, "geometry": { "type": "Point", "coordinates": [ 34.1, 44.95 ] } },
{ "type": "Feature", "properties": { "name": "kib" }, "geometry": { "type": "Point", "coordinates": [ 30.488262, 50.430417 ] } },
{ "type": "Feature", "properties": { "name": "avg" }, "geometry": { "type": "Point", "coordinates": [ 30.444691, 50.361994 ] } },
{ "type": "Feature", "properties": { "name": "anray" }, "geometry": { "type": "Point", "coordinates": [ 30.44, 46.28 ] } },
{ "type": "Feature", "properties": { "name": "jhay" }, "geometry": { "type": "Point", "coordinates": [ 28.27731, -25.80974 ] } },
{ "type": "Feature", "properties": { "name": "itetcu" }, "geometry": { "type": "Point", "coordinates": [ 26.1371, 44.420 ] } },
{ "type": "Feature", "properties": { "name": "manolis" }, "geometry": { "type": "Point", "coordinates": [ 24.033, 35.517 ] } },
{ "type": "Feature", "properties": { "name": "dds" }, "geometry": { "type": "Point", "coordinates": [ 23.73, 37.98 ] } },
{ "type": "Feature", "properties": { "name": "roam" }, "geometry": { "type": "Point", "coordinates": [ 23.2964, 42.6333 ] } },
{ "type": "Feature", "properties": { "name": "vd" }, "geometry": { "type": "Point", "coordinates": [ 23.2964, 42.6333 ] } },
{ "type": "Feature", "properties": { "name": "syrinx" }, "geometry": { "type": "Point", "coordinates": [ 23.2964, 42.6333 ] } },
{ "type": "Feature", "properties": { "name": "johan" }, "geometry": { "type": "Point", "coordinates": [ 22.17, 65.58 ] } },
{ "type": "Feature", "properties": { "name": "keramida" }, "geometry": { "type": "Point", "coordinates": [ 21.742405, 38.218762 ] } },
{ "type": "Feature", "properties": { "name": "pgj" }, "geometry": { "type": "Point", "coordinates": [ 21.633, 47.533 ] } },
{ "type": "Feature", "properties": { "name": "trasz" }, "geometry": { "type": "Point", "coordinates": [ 20.896, 52.188 ] } },
{ "type": "Feature", "properties": { "name": "raj" }, "geometry": { "type": "Point", "coordinates": [ 19.942396, 50.034361 ] } },
{ "type": "Feature", "properties": { "name": "eri" }, "geometry": { "type": "Point", "coordinates": [ 19.8, 41.33 ] } },
{ "type": "Feature", "properties": { "name": "gabor" }, "geometry": { "type": "Point", "coordinates": [ 19.0912, 47.5519 ] } },
{ "type": "Feature", "properties": { "name": "snb" }, "geometry": { "type": "Point", "coordinates": [ 18.0642, 59.3695 ] } },
{ "type": "Feature", "properties": { "name": "girgen" }, "geometry": { "type": "Point", "coordinates": [ 18.05, 59.33 ] } },
{ "type": "Feature", "properties": { "name": "rdivacky" }, "geometry": { "type": "Point", "coordinates": [ 17.109722, 48.143889 ] } },
{ "type": "Feature", "properties": { "name": "danger" }, "geometry": { "type": "Point", "coordinates": [ 16.982337, 48.204319 ] } },
{ "type": "Feature", "properties": { "name": "gerald" }, "geometry": { "type": "Point", "coordinates": [ 16.435, 48.253 ] } },
{ "type": "Feature", "properties": { "name": "arved" }, "geometry": { "type": "Point", "coordinates": [ 16.361604, 48.170744 ] } },
{ "type": "Feature", "properties": { "name": "le" }, "geometry": { "type": "Point", "coordinates": [ 16.3339, 48.2168 ] } },
{ "type": "Feature", "properties": { "name": "krion" }, "geometry": { "type": "Point", "coordinates": [ 16.326855, 48.178311 ] } },
{ "type": "Feature", "properties": { "name": "stefanf" }, "geometry": { "type": "Point", "coordinates": [ 16.3105, 48.2114 ] } },
{ "type": "Feature", "properties": { "name": "decke" }, "geometry": { "type": "Point", "coordinates": [ 15.6947, 46.9703 ] } },
{ "type": "Feature", "properties": { "name": "jkois" }, "geometry": { "type": "Point", "coordinates": [ 15.47220, 47.04410 ] } },
{ "type": "Feature", "properties": { "name": "lesi" }, "geometry": { "type": "Point", "coordinates": [ 14.514, 46.055 ] } },
{ "type": "Feature", "properties": { "name": "pav" }, "geometry": { "type": "Point", "coordinates": [ 14.473704, 50.090425 ] } },
{ "type": "Feature", "properties": { "name": "samm" }, "geometry": { "type": "Point", "coordinates": [ 13.902689, 49.835978 ] } },
{ "type": "Feature", "properties": { "name": "joerg" }, "geometry": { "type": "Point", "coordinates": [ 13.787446, 51.03686 ] } },
{ "type": "Feature", "properties": { "name": "wosch" }, "geometry": { "type": "Point", "coordinates": [ 13.394147, 52.521848 ] } },
{ "type": "Feature", "properties": { "name": "brueffer" }, "geometry": { "type": "Point", "coordinates": [ 13.12, 55.42 ] } },
{ "type": "Feature", "properties": { "name": "joel" }, "geometry": { "type": "Point", "coordinates": [ 12.832098, 58.234618 ] } },
{ "type": "Feature", "properties": { "name": "erwin" }, "geometry": { "type": "Point", "coordinates": [ 12.596603, 55.66283 ] } },
{ "type": "Feature", "properties": { "name": "lbr" }, "geometry": { "type": "Point", "coordinates": [ 12.5695, 55.66192 ] } },
{ "type": "Feature", "properties": { "name": "tobez" }, "geometry": { "type": "Point", "coordinates": [ 12.561944, 55.709434 ] } },
{ "type": "Feature", "properties": { "name": "bar" }, "geometry": { "type": "Point", "coordinates": [ 12.48333, 41.90000 ] } },
{ "type": "Feature", "properties": { "name": "lth" }, "geometry": { "type": "Point", "coordinates": [ 12.467337, 55.754892 ] } },
{ "type": "Feature", "properties": { "name": "simon" }, "geometry": { "type": "Point", "coordinates": [ 12.382, 55.627 ] } },
{ "type": "Feature", "properties": { "name": "obraun" }, "geometry": { "type": "Point", "coordinates": [ 12.333, 47.867 ] } },
{ "type": "Feature", "properties": { "name": "marius" }, "geometry": { "type": "Point", "coordinates": [ 12.279196, 49.200270 ] } },
{ "type": "Feature", "properties": { "name": "gj" }, "geometry": { "type": "Point", "coordinates": [ 11.9667, 48.05 ] } },
{ "type": "Feature", "properties": { "name": "matteo" }, "geometry": { "type": "Point", "coordinates": [ 11.883, 45.417 ] } },
{ "type": "Feature", "properties": { "name": "mr" }, "geometry": { "type": "Point", "coordinates": [ 11.67, 48.32 ] } },
{ "type": "Feature", "properties": { "name": "olli" }, "geometry": { "type": "Point", "coordinates": [ 11.635277, 48.108055 ] } },
{ "type": "Feature", "properties": { "name": "pho" }, "geometry": { "type": "Point", "coordinates": [ 11.62152, 55.48821 ] } },
{ "type": "Feature", "properties": { "name": "barner" }, "geometry": { "type": "Point", "coordinates": [ 11.572466, 48.109752 ] } },
{ "type": "Feature", "properties": { "name": "phk" }, "geometry": { "type": "Point", "coordinates": [ 11.3397291, 55.406124 ] } },
{ "type": "Feature", "properties": { "name": "harti" }, "geometry": { "type": "Point", "coordinates": [ 11.296, 48.095 ] } },
{ "type": "Feature", "properties": { "name": "rse" }, "geometry": { "type": "Point", "coordinates": [ 11.26, 48.16 ] } },
{ "type": "Feature", "properties": { "name": "madpilot" }, "geometry": { "type": "Point", "coordinates": [ 11.22991, 43.79142 ] } },
{ "type": "Feature", "properties": { "name": "des" }, "geometry": { "type": "Point", "coordinates": [ 10.8990, 59.9674 ] } },
{ "type": "Feature", "properties": { "name": "eivind" }, "geometry": { "type": "Point", "coordinates": [ 10.75, 59.92 ] } },
{ "type": "Feature", "properties": { "name": "anders" }, "geometry": { "type": "Point", "coordinates": [ 10.75, 59.92 ] } },
{ "type": "Feature", "properties": { "name": "tegge" }, "geometry": { "type": "Point", "coordinates": [ 10.40341, 63.434851 ] } },
{ "type": "Feature", "properties": { "name": "luigi" }, "geometry": { "type": "Point", "coordinates": [ 10.40, 43.71 ] } },
{ "type": "Feature", "properties": { "name": "brix" }, "geometry": { "type": "Point", "coordinates": [ 10.201, 56.156 ] } },
{ "type": "Feature", "properties": { "name": "sos" }, "geometry": { "type": "Point", "coordinates": [ 10.2, 57.2 ] } },
{ "type": "Feature", "properties": { "name": "cracauer" }, "geometry": { "type": "Point", "coordinates": [ 10.02, 53.56 ] } },
{ "type": "Feature", "properties": { "name": "hm" }, "geometry": { "type": "Point", "coordinates": [ 9.84, 53.64 ] } },
{ "type": "Feature", "properties": { "name": "helbig" }, "geometry": { "type": "Point", "coordinates": [ 9.836389, 48.336389 ] } },
{ "type": "Feature", "properties": { "name": "schweikh" }, "geometry": { "type": "Point", "coordinates": [ 9.5, 49.00 ] } },
{ "type": "Feature", "properties": { "name": "dinoex" }, "geometry": { "type": "Point", "coordinates": [ 9.20, 51.20 ] } },
{ "type": "Feature", "properties": { "name": "piso" }, "geometry": { "type": "Point", "coordinates": [ 9.200, 45.467 ] } },
{ "type": "Feature", "properties": { "name": "olgeni" }, "geometry": { "type": "Point", "coordinates": [ 9.17, 45.27 ] } },
{ "type": "Feature", "properties": { "name": "ale" }, "geometry": { "type": "Point", "coordinates": [ 9.164711, 45.488328 ] } },
{ "type": "Feature", "properties": { "name": "bz" }, "geometry": { "type": "Point", "coordinates": [ 9.04111, 48.53778 ] } },
{ "type": "Feature", "properties": { "name": "gahr" }, "geometry": { "type": "Point", "coordinates": [ 8.9166476, 46.050045 ] } },
{ "type": "Feature", "properties": { "name": "lkoeller" }, "geometry": { "type": "Point", "coordinates": [ 8.9, 52.05 ] } },
{ "type": "Feature", "properties": { "name": "nivit" }, "geometry": { "type": "Point", "coordinates": [ 8.867, 45.667 ] } },
{ "type": "Feature", "properties": { "name": "tobik" }, "geometry": { "type": "Point", "coordinates": [ 8.8017, 53.0793 ] } },
{ "type": "Feature", "properties": { "name": "beat" }, "geometry": { "type": "Point", "coordinates": [ 8.6, 47.420 ] } },
{ "type": "Feature", "properties": { "name": "bcr" }, "geometry": { "type": "Point", "coordinates": [ 8.55246, 49.85958 ] } },
{ "type": "Feature", "properties": { "name": "dhartmei" }, "geometry": { "type": "Point", "coordinates": [ 8.5166, 47.1666 ] } },
{ "type": "Feature", "properties": { "name": "ehaupt" }, "geometry": { "type": "Point", "coordinates": [ 8.514722, 47.380458 ] } },
{ "type": "Feature", "properties": { "name": "mlaier" }, "geometry": { "type": "Point", "coordinates": [ 8.445214, 49.014958 ] } },
{ "type": "Feature", "properties": { "name": "naddy" }, "geometry": { "type": "Point", "coordinates": [ 8.42, 49.48 ] } },
{ "type": "Feature", "properties": { "name": "avilla" }, "geometry": { "type": "Point", "coordinates": [ 8.42, 45.32 ] } },
{ "type": "Feature", "properties": { "name": "jacula" }, "geometry": { "type": "Point", "coordinates": [ 8.32383334, 40.5701089 ] } },
{ "type": "Feature", "properties": { "name": "andre" }, "geometry": { "type": "Point", "coordinates": [ 8.32, 47.23 ] } },
{ "type": "Feature", "properties": { "name": "dhn" }, "geometry": { "type": "Point", "coordinates": [ 7.8, 51.68 ] } },
{ "type": "Feature", "properties": { "name": "stefan" }, "geometry": { "type": "Point", "coordinates": [ 7.683, 51.533 ] } },
{ "type": "Feature", "properties": { "name": "flo" }, "geometry": { "type": "Point", "coordinates": [ 7.60220, 51.47670 ] } },
{ "type": "Feature", "properties": { "name": "markus" }, "geometry": { "type": "Point", "coordinates": [ 7.293945, 51.290484 ] } },
{ "type": "Feature", "properties": { "name": "egypcio" }, "geometry": { "type": "Point", "coordinates": [ 7.09972, 50.73389 ] } },
{ "type": "Feature", "properties": { "name": "lofi" }, "geometry": { "type": "Point", "coordinates": [ 7.007214, 51.385658 ] } },
{ "type": "Feature", "properties": { "name": "clement" }, "geometry": { "type": "Point", "coordinates": [ 7.00, 43.6 ] } },
{ "type": "Feature", "properties": { "name": "bruno" }, "geometry": { "type": "Point", "coordinates": [ 7.00, 43.6 ] } },
{ "type": "Feature", "properties": { "name": "netchild" }, "geometry": { "type": "Point", "coordinates": [ 6.983889, 49.398056 ] } },
{ "type": "Feature", "properties": { "name": "se" }, "geometry": { "type": "Point", "coordinates": [ 6.9175, 50.9953 ] } },
{ "type": "Feature", "properties": { "name": "lme" }, "geometry": { "type": "Point", "coordinates": [ 6.86970, 51.146552 ] } },
{ "type": "Feature", "properties": { "name": "pizzamig" }, "geometry": { "type": "Point", "coordinates": [ 6.80959, 51.22720 ] } },
{ "type": "Feature", "properties": { "name": "oliver" }, "geometry": { "type": "Point", "coordinates": [ 6.784074, 51.126809 ] } },
{ "type": "Feature", "properties": { "name": "lbartoletti" }, "geometry": { "type": "Point", "coordinates": [ 6.633, 45.8766 ] } },
{ "type": "Feature", "properties": { "name": "ticso" }, "geometry": { "type": "Point", "coordinates": [ 6.6166, 51.4666 ] } },
{ "type": "Feature", "properties": { "name": "andreas" }, "geometry": { "type": "Point", "coordinates": [ 6.41, 51.12 ] } },
{ "type": "Feature", "properties": { "name": "culot" }, "geometry": { "type": "Point", "coordinates": [ 6.130, 49.612 ] } },
{ "type": "Feature", "properties": { "name": "tg" }, "geometry": { "type": "Point", "coordinates": [ 6.09304, 50.76107 ] } },
{ "type": "Feature", "properties": { "name": "wilko" }, "geometry": { "type": "Point", "coordinates": [ 5.96, 51.98 ] } },
{ "type": "Feature", "properties": { "name": "adridg" }, "geometry": { "type": "Point", "coordinates": [ 5.85, 51.86 ] } },
{ "type": "Feature", "properties": { "name": "kwm" }, "geometry": { "type": "Point", "coordinates": [ 5.80429, 53.20460 ] } },
{ "type": "Feature", "properties": { "name": "ed" }, "geometry": { "type": "Point", "coordinates": [ 5.739367, 51.758894 ] } },
{ "type": "Feature", "properties": { "name": "asmodai" }, "geometry": { "type": "Point", "coordinates": [ 5.54, 51.86 ] } },
{ "type": "Feature", "properties": { "name": "rene" }, "geometry": { "type": "Point", "coordinates": [ 5.4792, 51.4748 ] } },
{ "type": "Feature", "properties": { "name": "johans" }, "geometry": { "type": "Point", "coordinates": [ 5.470, 51.473 ] } },
{ "type": "Feature", "properties": { "name": "damien" }, "geometry": { "type": "Point", "coordinates": [ 5.4337, 45.1116 ] } },
{ "type": "Feature", "properties": { "name": "hq" }, "geometry": { "type": "Point", "coordinates": [ 5.40153, 43.27357 ] } },
{ "type": "Feature", "properties": { "name": "guido" }, "geometry": { "type": "Point", "coordinates": [ 5.30, 51.25 ] } },
{ "type": "Feature", "properties": { "name": "znerd" }, "geometry": { "type": "Point", "coordinates": [ 5.283333, 52.05 ] } },
{ "type": "Feature", "properties": { "name": "dim" }, "geometry": { "type": "Point", "coordinates": [ 5.097134, 52.088936 ] } },
{ "type": "Feature", "properties": { "name": "thierry" }, "geometry": { "type": "Point", "coordinates": [ 4.949373, 45.636772 ] } },
{ "type": "Feature", "properties": { "name": "remko" }, "geometry": { "type": "Point", "coordinates": [ 4.554, 51.890 ] } },
{ "type": "Feature", "properties": { "name": "marks" }, "geometry": { "type": "Point", "coordinates": [ 4.4905, 51.9201 ] } },
{ "type": "Feature", "properties": { "name": "jylefort" }, "geometry": { "type": "Point", "coordinates": [ 4.36, 50.383 ] } },
{ "type": "Feature", "properties": { "name": "vanhu" }, "geometry": { "type": "Point", "coordinates": [ 3.104, 50.7323 ] } },
{ "type": "Feature", "properties": { "name": "charnier" }, "geometry": { "type": "Point", "coordinates": [ 2.99, 48.36 ] } },
{ "type": "Feature", "properties": { "name": "antoine" }, "geometry": { "type": "Point", "coordinates": [ 2.36, 48.83 ] } },
{ "type": "Feature", "properties": { "name": "sbz" }, "geometry": { "type": "Point", "coordinates": [ 2.347019, 48.827111 ] } },
{ "type": "Feature", "properties": { "name": "jesusr" }, "geometry": { "type": "Point", "coordinates": [ 2.3333, 41.6666 ] } },
{ "type": "Feature", "properties": { "name": "dumbbell" }, "geometry": { "type": "Point", "coordinates": [ 2.33, 48.87 ] } },
{ "type": "Feature", "properties": { "name": "cognet" }, "geometry": { "type": "Point", "coordinates": [ 2.33, 48.87 ] } },
{ "type": "Feature", "properties": { "name": "mat" }, "geometry": { "type": "Point", "coordinates": [ 2.2856, 48.8473 ] } },
{ "type": "Feature", "properties": { "name": "mich" }, "geometry": { "type": "Point", "coordinates": [ 2.256, 48.912 ] } },
{ "type": "Feature", "properties": { "name": "roberto" }, "geometry": { "type": "Point", "coordinates": [ 2.245696, 48.818344 ] } },
{ "type": "Feature", "properties": { "name": "blackend" }, "geometry": { "type": "Point", "coordinates": [ 2.242, 48.836 ] } },
{ "type": "Feature", "properties": { "name": "bapt" }, "geometry": { "type": "Point", "coordinates": [ 2.213, 48.844 ] } },
{ "type": "Feature", "properties": { "name": "stephane" }, "geometry": { "type": "Point", "coordinates": [ 1.738281, 46.75984 ] } },
{ "type": "Feature", "properties": { "name": "matthew" }, "geometry": { "type": "Point", "coordinates": [ 1.41088, 51.33046 ] } },
{ "type": "Feature", "properties": { "name": "tdb" }, "geometry": { "type": "Point", "coordinates": [ 1.07005, 51.29870 ] } },
{ "type": "Feature", "properties": { "name": "markm" }, "geometry": { "type": "Point", "coordinates": [ 0.19, 52.18 ] } },
{ "type": "Feature", "properties": { "name": "rsm" }, "geometry": { "type": "Point", "coordinates": [ 0.14134, 52.20360 ] } },
{ "type": "Feature", "properties": { "name": "joe" }, "geometry": { "type": "Point", "coordinates": [ 0.128383333, 50.84121667 ] } },
{ "type": "Feature", "properties": { "name": "fanf" }, "geometry": { "type": "Point", "coordinates": [ 0.1200, 52.2035 ] } },
{ "type": "Feature", "properties": { "name": "rwatson" }, "geometry": { "type": "Point", "coordinates": [ 0.09235, 52.21065 ] } },
{ "type": "Feature", "properties": { "name": "dmlb" }, "geometry": { "type": "Point", "coordinates": [ 0.056618, 52.116761 ] } },
{ "type": "Feature", "properties": { "name": "dfr" }, "geometry": { "type": "Point", "coordinates": [ 0.0, 51.5 ] } },
{ "type": "Feature", "properties": { "name": "sevan" }, "geometry": { "type": "Point", "coordinates": [ -0.136490, 50.819610 ] } },
{ "type": "Feature", "properties": { "name": "n_hibma" }, "geometry": { "type": "Point", "coordinates": [ -0.18, 51.53 ] } },
{ "type": "Feature", "properties": { "name": "nik" }, "geometry": { "type": "Point", "coordinates": [ -0.48, 51.50 ] } },
{ "type": "Feature", "properties": { "name": "tom" }, "geometry": { "type": "Point", "coordinates": [ -0.75, 52.01 ] } },
{ "type": "Feature", "properties": { "name": "jesper" }, "geometry": { "type": "Point", "coordinates": [ -1.011833, 51.461916 ] } },
{ "type": "Feature", "properties": { "name": "gavin" }, "geometry": { "type": "Point", "coordinates": [ -1.072605, 53.955666 ] } },
{ "type": "Feature", "properties": { "name": "hmp" }, "geometry": { "type": "Point", "coordinates": [ -1.135, 52.635 ] } },
{ "type": "Feature", "properties": { "name": "martymac" }, "geometry": { "type": "Point", "coordinates": [ -1.60, 48.12 ] } },
{ "type": "Feature", "properties": { "name": "jadawin" }, "geometry": { "type": "Point", "coordinates": [ -1.61104, 48.10927 ] } },
{ "type": "Feature", "properties": { "name": "olivier" }, "geometry": { "type": "Point", "coordinates": [ -1.658038, 47.394586 ] } },
{ "type": "Feature", "properties": { "name": "brucec" }, "geometry": { "type": "Point", "coordinates": [ -2.179896, 57.114807 ] } },
{ "type": "Feature", "properties": { "name": "makc" }, "geometry": { "type": "Point", "coordinates": [ -2.233333, 53.466667 ] } },
{ "type": "Feature", "properties": { "name": "crees" }, "geometry": { "type": "Point", "coordinates": [ -2.2341, 52.188649 ] } },
{ "type": "Feature", "properties": { "name": "carvay" }, "geometry": { "type": "Point", "coordinates": [ -2.66976, 42.8474 ] } },
{ "type": "Feature", "properties": { "name": "ceri" }, "geometry": { "type": "Point", "coordinates": [ -3.16, 51.49 ] } },
{ "type": "Feature", "properties": { "name": "cpm" }, "geometry": { "type": "Point", "coordinates": [ -3.6149, 37.1876 ] } },
{ "type": "Feature", "properties": { "name": "dwmalone" }, "geometry": { "type": "Point", "coordinates": [ -6.15, 53.20 ] } },
{ "type": "Feature", "properties": { "name": "flz" }, "geometry": { "type": "Point", "coordinates": [ -6.196429, 53.286499 ] } },
{ "type": "Feature", "properties": { "name": "peadar" }, "geometry": { "type": "Point", "coordinates": [ -6.67, 53.65 ] } },
{ "type": "Feature", "properties": { "name": "lippe" }, "geometry": { "type": "Point", "coordinates": [ -35.724911, -9.603815 ] } },
{ "type": "Feature", "properties": { "name": "jmelo" }, "geometry": { "type": "Point", "coordinates": [ -43.933, -19.917 ] } },
{ "type": "Feature", "properties": { "name": "alfredo" }, "geometry": { "type": "Point", "coordinates": [ -47.06, -22.81 ] } },
{ "type": "Feature", "properties": { "name": "lioux" }, "geometry": { "type": "Point", "coordinates": [ -47.9, -15.8 ] } },
{ "type": "Feature", "properties": { "name": "garga" }, "geometry": { "type": "Point", "coordinates": [ -47.917, -20.950 ] } },
{ "type": "Feature", "properties": { "name": "dcs" }, "geometry": { "type": "Point", "coordinates": [ -47.931097, -15.789297 ] } },
{ "type": "Feature", "properties": { "name": "araujo" }, "geometry": { "type": "Point", "coordinates": [ -48.765, -27.583 ] } },
{ "type": "Feature", "properties": { "name": "wg" }, "geometry": { "type": "Point", "coordinates": [ -49.212143, -25.477905 ] } },
{ "type": "Feature", "properties": { "name": "mnag" }, "geometry": { "type": "Point", "coordinates": [ -51.13801, -30.043826 ] } },
{ "type": "Feature", "properties": { "name": "dbaio" }, "geometry": { "type": "Point", "coordinates": [ -51.9331, -23.4210 ] } },
{ "type": "Feature", "properties": { "name": "alepulver" }, "geometry": { "type": "Point", "coordinates": [ -58.450, -34.600 ] } },
{ "type": "Feature", "properties": { "name": "jrm" }, "geometry": { "type": "Point", "coordinates": [ -63.58, 44.63 ] } },
{ "type": "Feature", "properties": { "name": "jeh" }, "geometry": { "type": "Point", "coordinates": [ -70.8453, 42.1411 ] } },
{ "type": "Feature", "properties": { "name": "cracauer" }, "geometry": { "type": "Point", "coordinates": [ -71.106, 42.375 ] } },
{ "type": "Feature", "properties": { "name": "wollman" }, "geometry": { "type": "Point", "coordinates": [ -71.19, 42.34 ] } },
{ "type": "Feature", "properties": { "name": "tmclaugh" }, "geometry": { "type": "Point", "coordinates": [ -71.23, 42.28 ] } },
{ "type": "Feature", "properties": { "name": "glarkin" }, "geometry": { "type": "Point", "coordinates": [ -71.5915, 42.7430 ] } },
{ "type": "Feature", "properties": { "name": "deischen" }, "geometry": { "type": "Point", "coordinates": [ -71.967, 41.354 ] } },
{ "type": "Feature", "properties": { "name": "bmilekic" }, "geometry": { "type": "Point", "coordinates": [ -73.6666, 45.50 ] } },
{ "type": "Feature", "properties": { "name": "jon" }, "geometry": { "type": "Point", "coordinates": [ -73.67030, 42.73656 ] } },
{ "type": "Feature", "properties": { "name": "gad" }, "geometry": { "type": "Point", "coordinates": [ -73.68172, 42.72915 ] } },
{ "type": "Feature", "properties": { "name": "skreuzer" }, "geometry": { "type": "Point", "coordinates": [ -73.903098, 40.741778 ] } },
{ "type": "Feature", "properties": { "name": "sahil" }, "geometry": { "type": "Point", "coordinates": [ -73.97, 40.75 ] } },
{ "type": "Feature", "properties": { "name": "jkim" }, "geometry": { "type": "Point", "coordinates": [ -73.98038, 40.86004 ] } },
{ "type": "Feature", "properties": { "name": "gnn" }, "geometry": { "type": "Point", "coordinates": [ -75, 43 ] } },
{ "type": "Feature", "properties": { "name": "db" }, "geometry": { "type": "Point", "coordinates": [ -75.193, 45.366 ] } },
{ "type": "Feature", "properties": { "name": "jake" }, "geometry": { "type": "Point", "coordinates": [ -75.6942, 45.3991 ] } },
{ "type": "Feature", "properties": { "name": "pat" }, "geometry": { "type": "Point", "coordinates": [ -76.28954, 42.26785 ] } },
{ "type": "Feature", "properties": { "name": "patrick" }, "geometry": { "type": "Point", "coordinates": [ -76.442, 39.046 ] } },
{ "type": "Feature", "properties": { "name": "adamw" }, "geometry": { "type": "Point", "coordinates": [ -76.48019, 44.229844 ] } },
{ "type": "Feature", "properties": { "name": "acm" }, "geometry": { "type": "Point", "coordinates": [ -77.0500, -12.0500 ] } },
{ "type": "Feature", "properties": { "name": "pgollucci" }, "geometry": { "type": "Point", "coordinates": [ -77.113810, 38.836899 ] } },
{ "type": "Feature", "properties": { "name": "trhodes" }, "geometry": { "type": "Point", "coordinates": [ -77.171, 38.882 ] } },
{ "type": "Feature", "properties": { "name": "green" }, "geometry": { "type": "Point", "coordinates": [ -77.203029, 39.128555 ] } },
{ "type": "Feature", "properties": { "name": "wxs" }, "geometry": { "type": "Point", "coordinates": [ -78.781, 35.798 ] } },
{ "type": "Feature", "properties": { "name": "marcus" }, "geometry": { "type": "Point", "coordinates": [ -78.781, 35.791 ] } },
{ "type": "Feature", "properties": { "name": "osa" }, "geometry": { "type": "Point", "coordinates": [ -78.79659, 35.82715 ] } },
{ "type": "Feature", "properties": { "name": "gallatin" }, "geometry": { "type": "Point", "coordinates": [ -78.7994, 35.8072 ] } },
{ "type": "Feature", "properties": { "name": "swills" }, "geometry": { "type": "Point", "coordinates": [ -78.843137, 35.653138 ] } },
{ "type": "Feature", "properties": { "name": "bsd" }, "geometry": { "type": "Point", "coordinates": [ -78.91, 35.73 ] } },
{ "type": "Feature", "properties": { "name": "dmgk" }, "geometry": { "type": "Point", "coordinates": [ -79.004481, -2.897414 ] } },
{ "type": "Feature", "properties": { "name": "hoek" }, "geometry": { "type": "Point", "coordinates": [ -79.79, 43.37 ] } },
{ "type": "Feature", "properties": { "name": "allanjude" }, "geometry": { "type": "Point", "coordinates": [ -79.86, 43.22 ] } },
{ "type": "Feature", "properties": { "name": "rvb" }, "geometry": { "type": "Point", "coordinates": [ -80, 40.441667 ] } },
{ "type": "Feature", "properties": { "name": "mikeh" }, "geometry": { "type": "Point", "coordinates": [ -80.41, 37.23 ] } },
{ "type": "Feature", "properties": { "name": "emaste" }, "geometry": { "type": "Point", "coordinates": [ -80.54, 43.48 ] } },
{ "type": "Feature", "properties": { "name": "jsa" }, "geometry": { "type": "Point", "coordinates": [ -82.4725, 36.294167 ] } },
{ "type": "Feature", "properties": { "name": "laszlof" }, "geometry": { "type": "Point", "coordinates": [ -82.553759, 34.827667 ] } },
{ "type": "Feature", "properties": { "name": "rees" }, "geometry": { "type": "Point", "coordinates": [ -83.75, 42.28 ] } },
{ "type": "Feature", "properties": { "name": "jhixson" }, "geometry": { "type": "Point", "coordinates": [ -83.993768, 35.739974 ] } },
{ "type": "Feature", "properties": { "name": "ahze" }, "geometry": { "type": "Point", "coordinates": [ -84.485421, 33.817888 ] } },
{ "type": "Feature", "properties": { "name": "cokane" }, "geometry": { "type": "Point", "coordinates": [ -84.5030, 39.1361 ] } },
{ "type": "Feature", "properties": { "name": "rnoland" }, "geometry": { "type": "Point", "coordinates": [ -86.054649, 35.555301 ] } },
{ "type": "Feature", "properties": { "name": "scf" }, "geometry": { "type": "Point", "coordinates": [ -86.11805, 39.978436 ] } },
{ "type": "Feature", "properties": { "name": "steve" }, "geometry": { "type": "Point", "coordinates": [ -86.70977, 34.81095 ] } },
{ "type": "Feature", "properties": { "name": "silby" }, "geometry": { "type": "Point", "coordinates": [ -87.906, 43.039 ] } },
{ "type": "Feature", "properties": { "name": "jwb" }, "geometry": { "type": "Point", "coordinates": [ -87.906, 43.039 ] } },
{ "type": "Feature", "properties": { "name": "tabthorpe" }, "geometry": { "type": "Point", "coordinates": [ -89.233, 48.400 ] } },
{ "type": "Feature", "properties": { "name": "jlemon" }, "geometry": { "type": "Point", "coordinates": [ -89.38, 43.19 ] } },
{ "type": "Feature", "properties": { "name": "feld" }, "geometry": { "type": "Point", "coordinates": [ -89.41, 43.02 ] } },
{ "type": "Feature", "properties": { "name": "nwhitehorn" }, "geometry": { "type": "Point", "coordinates": [ -84.484, 42.737 ] } },
{ "type": "Feature", "properties": { "name": "jpaetzel" }, "geometry": { "type": "Point", "coordinates": [ -92.373, 46.012 ] } },
{ "type": "Feature", "properties": { "name": "stephen" }, "geometry": { "type": "Point", "coordinates": [ -92.40, 38.92 ] } },
{ "type": "Feature", "properties": { "name": "xride" }, "geometry": { "type": "Point", "coordinates": [ -92.8234, 45.0676 ] } },
{ "type": "Feature", "properties": { "name": "mpp" }, "geometry": { "type": "Point", "coordinates": [ -93.25, 44.99 ] } },
{ "type": "Feature", "properties": { "name": "bdrewery" }, "geometry": { "type": "Point", "coordinates": [ -93.35, 44.89 ] } },
{ "type": "Feature", "properties": { "name": "ghelmer" }, "geometry": { "type": "Point", "coordinates": [ -93.67, 42.02 ] } },
{ "type": "Feature", "properties": { "name": "chris" }, "geometry": { "type": "Point", "coordinates": [ -95.00, 29.834 ] } },
{ "type": "Feature", "properties": { "name": "ade" }, "geometry": { "type": "Point", "coordinates": [ -95.5525, 30.715833 ] } },
{ "type": "Feature", "properties": { "name": "kmacy" }, "geometry": { "type": "Point", "coordinates": [ -95.677068, 37.0625 ] } },
{ "type": "Feature", "properties": { "name": "dwcjr" }, "geometry": { "type": "Point", "coordinates": [ -95.8225, 29.7925 ] } },
{ "type": "Feature", "properties": { "name": "kevans" }, "geometry": { "type": "Point", "coordinates": [ -96.620, 39.168 ] } },
{ "type": "Feature", "properties": { "name": "ler" }, "geometry": { "type": "Point", "coordinates": [ -97.64801025, 30.47702408 ] } },
{ "type": "Feature", "properties": { "name": "linimon" }, "geometry": { "type": "Point", "coordinates": [ -97.881, 30.343 ] } },
{ "type": "Feature", "properties": { "name": "mezz" }, "geometry": { "type": "Point", "coordinates": [ -100.872, 37.972 ] } },
{ "type": "Feature", "properties": { "name": "brd" }, "geometry": { "type": "Point", "coordinates": [ -104.981891, 39.897418 ] } },
{ "type": "Feature", "properties": { "name": "will" }, "geometry": { "type": "Point", "coordinates": [ -105.074891, 39.897418 ] } },
{ "type": "Feature", "properties": { "name": "imp" }, "geometry": { "type": "Point", "coordinates": [ -105.23914289, 40.01942534 ] } },
{ "type": "Feature", "properties": { "name": "gibbs" }, "geometry": { "type": "Point", "coordinates": [ -105.3, 40.1 ] } },
{ "type": "Feature", "properties": { "name": "ken" }, "geometry": { "type": "Point", "coordinates": [ -105.3, 40.1 ] } },
{ "type": "Feature", "properties": { "name": "jcamou" }, "geometry": { "type": "Point", "coordinates": [ -110.967, 29.067 ] } },
{ "type": "Feature", "properties": { "name": "jamie" }, "geometry": { "type": "Point", "coordinates": [ -111.696486, 40.298753 ] } },
{ "type": "Feature", "properties": { "name": "kbowling" }, "geometry": { "type": "Point", "coordinates": [ -111.9344, 33.3437 ] } },
{ "type": "Feature", "properties": { "name": "davidc" }, "geometry": { "type": "Point", "coordinates": [ -114.13, 51.083 ] } },
{ "type": "Feature", "properties": { "name": "aaron" }, "geometry": { "type": "Point", "coordinates": [ -114.167, 51.083 ] } },
{ "type": "Feature", "properties": { "name": "jasone" }, "geometry": { "type": "Point", "coordinates": [ -116.83366, 47.74075 ] } },
{ "type": "Feature", "properties": { "name": "gordon" }, "geometry": { "type": "Point", "coordinates": [ -117.068113, 33.001565 ] } },
{ "type": "Feature", "properties": { "name": "wes" }, "geometry": { "type": "Point", "coordinates": [ -117.087532, 33.032476 ] } },
{ "type": "Feature", "properties": { "name": "dd" }, "geometry": { "type": "Point", "coordinates": [ -117.80, 33.66 ] } },
{ "type": "Feature", "properties": { "name": "davidch" }, "geometry": { "type": "Point", "coordinates": [ -117.80, 33.66 ] } },
{ "type": "Feature", "properties": { "name": "trevor" }, "geometry": { "type": "Point", "coordinates": [ -118.22, 33.83 ] } },
{ "type": "Feature", "properties": { "name": "kris" }, "geometry": { "type": "Point", "coordinates": [ -118.29, 34.11 ] } },
{ "type": "Feature", "properties": { "name": "brooks" }, "geometry": { "type": "Point", "coordinates": [ -118.324, 46.070 ] } },
{ "type": "Feature", "properties": { "name": "rmacklem" }, "geometry": { "type": "Point", "coordinates": [ -119.3, 52.8 ] } },
{ "type": "Feature", "properties": { "name": "jgh" }, "geometry": { "type": "Point", "coordinates": [ -120.659, 35.383 ] } },
{ "type": "Feature", "properties": { "name": "truckman" }, "geometry": { "type": "Point", "coordinates": [ -121.02, 39.25 ] } },
{ "type": "Feature", "properties": { "name": "mharo" }, "geometry": { "type": "Point", "coordinates": [ -121.76, 38.54 ] } },
{ "type": "Feature", "properties": { "name": "weongyo" }, "geometry": { "type": "Point", "coordinates": [ -121.9265, 37.4014 ] } },
{ "type": "Feature", "properties": { "name": "alfred" }, "geometry": { "type": "Point", "coordinates": [ -121.94, 37.40 ] } },
{ "type": "Feature", "properties": { "name": "peter" }, "geometry": { "type": "Point", "coordinates": [ -121.947116, 37.75573 ] } },
{ "type": "Feature", "properties": { "name": "jhb" }, "geometry": { "type": "Point", "coordinates": [ -121.98, 37.96 ] } },
{ "type": "Feature", "properties": { "name": "cjc" }, "geometry": { "type": "Point", "coordinates": [ -121.992, 37.359394 ] } },
{ "type": "Feature", "properties": { "name": "asami" }, "geometry": { "type": "Point", "coordinates": [ -122.0, 37.4 ] } },
{ "type": "Feature", "properties": { "name": "stas" }, "geometry": { "type": "Point", "coordinates": [ -122.0154, 37.3583 ] } },
{ "type": "Feature", "properties": { "name": "rpaulo" }, "geometry": { "type": "Point", "coordinates": [ -122.033333, 37.533333 ] } },
{ "type": "Feature", "properties": { "name": "obrien" }, "geometry": { "type": "Point", "coordinates": [ -122.05, 37.38 ] } },
{ "type": "Feature", "properties": { "name": "marcel" }, "geometry": { "type": "Point", "coordinates": [ -122.06, 37.39 ] } },
{ "type": "Feature", "properties": { "name": "murray" }, "geometry": { "type": "Point", "coordinates": [ -122.07, 37.40 ] } },
{ "type": "Feature", "properties": { "name": "delphij" }, "geometry": { "type": "Point", "coordinates": [ -122.0715, 37.3905 ] } },
{ "type": "Feature", "properties": { "name": "bakul" }, "geometry": { "type": "Point", "coordinates": [ -122.11, 37.39 ] } },
{ "type": "Feature", "properties": { "name": "bmah" }, "geometry": { "type": "Point", "coordinates": [ -122.12, 37.89 ] } },
{ "type": "Feature", "properties": { "name": "mjacob" }, "geometry": { "type": "Point", "coordinates": [ -122.155141, 37.460421 ] } },
{ "type": "Feature", "properties": { "name": "garys" }, "geometry": { "type": "Point", "coordinates": [ -122.227021, 47.382689 ] } },
{ "type": "Feature", "properties": { "name": "kientzle" }, "geometry": { "type": "Point", "coordinates": [ -122.2466, 37.81875 ] } },
{ "type": "Feature", "properties": { "name": "jmg" }, "geometry": { "type": "Point", "coordinates": [ -122.25, 37.84 ] } },
{ "type": "Feature", "properties": { "name": "dhw" }, "geometry": { "type": "Point", "coordinates": [ -122.2548, 37.4703 ] } },
{ "type": "Feature", "properties": { "name": "gsutter" }, "geometry": { "type": "Point", "coordinates": [ -122.264896, 37.887398 ] } },
{ "type": "Feature", "properties": { "name": "sam" }, "geometry": { "type": "Point", "coordinates": [ -122.264896, 37.887398 ] } },
{ "type": "Feature", "properties": { "name": "fenner" }, "geometry": { "type": "Point", "coordinates": [ -122.268966, 37.386666 ] } },
{ "type": "Feature", "properties": { "name": "dteske" }, "geometry": { "type": "Point", "coordinates": [ -122.288577, 37.848966 ] } },
{ "type": "Feature", "properties": { "name": "julian" }, "geometry": { "type": "Point", "coordinates": [ -122.29414, 37.913698 ] } },
{ "type": "Feature", "properties": { "name": "kbyanc" }, "geometry": { "type": "Point", "coordinates": [ -122.30, 37.51 ] } },
{ "type": "Feature", "properties": { "name": "gshapiro" }, "geometry": { "type": "Point", "coordinates": [ -122.30927, 37.90641 ] } },
{ "type": "Feature", "properties": { "name": "seanc" }, "geometry": { "type": "Point", "coordinates": [ -122.345697, 47.75596 ] } },
{ "type": "Feature", "properties": { "name": "zml" }, "geometry": { "type": "Point", "coordinates": [ -122.383830, 47.672538 ] } },
{ "type": "Feature", "properties": { "name": "alexbl" }, "geometry": { "type": "Point", "coordinates": [ -122.39, 45.31 ] } },
{ "type": "Feature", "properties": { "name": "billf" }, "geometry": { "type": "Point", "coordinates": [ -122.398, 37.781 ] } },
{ "type": "Feature", "properties": { "name": "eadler" }, "geometry": { "type": "Point", "coordinates": [ -122.4194, 37.7749 ] } },
{ "type": "Feature", "properties": { "name": "lx" }, "geometry": { "type": "Point", "coordinates": [ -122.42, 37.76 ] } },
{ "type": "Feature", "properties": { "name": "njl" }, "geometry": { "type": "Point", "coordinates": [ -122.43, 37.80 ] } },
{ "type": "Feature", "properties": { "name": "archie" }, "geometry": { "type": "Point", "coordinates": [ -122.44, 37.77 ] } },
{ "type": "Feature", "properties": { "name": "np" }, "geometry": { "type": "Point", "coordinates": [ -122.52, 37.05 ] } },
{ "type": "Feature", "properties": { "name": "dg" }, "geometry": { "type": "Point", "coordinates": [ -122.6, 45.5 ] } },
{ "type": "Feature", "properties": { "name": "glewis" }, "geometry": { "type": "Point", "coordinates": [ -122.614, 47.643 ] } },
{ "type": "Feature", "properties": { "name": "cperciva" }, "geometry": { "type": "Point", "coordinates": [ -122.91385, 49.27705 ] } },
{ "type": "Feature", "properties": { "name": "sobomax" }, "geometry": { "type": "Point", "coordinates": [ -122.919931, 49.204533 ] } },
{ "type": "Feature", "properties": { "name": "jdp" }, "geometry": { "type": "Point", "coordinates": [ -122.94369, 48.482814 ] } },
{ "type": "Feature", "properties": { "name": "brian" }, "geometry": { "type": "Point", "coordinates": [ -123.022793, 49.349453 ] } },
{ "type": "Feature", "properties": { "name": "anholt" }, "geometry": { "type": "Point", "coordinates": [ -123.06, 44.04 ] } },
{ "type": "Feature", "properties": { "name": "gonzo" }, "geometry": { "type": "Point", "coordinates": [ -123.08, 49.2 ] } },
{ "type": "Feature", "properties": { "name": "jmallett" }, "geometry": { "type": "Point", "coordinates": [ -123.4424258, 48.7390016 ] } },
{ "type": "Feature", "properties": { "name": "cy" }, "geometry": { "type": "Point", "coordinates": [ -123.4875, 48.3898 ] } },
{ "type": "Feature", "properties": { "name": "jkh" }, "geometry": { "type": "Point", "coordinates": [ -123.5, 40.0 ] } },
{ "type": "Feature", "properties": { "name": "romain" }, "geometry": { "type": "Point", "coordinates": [ -149.57844, -17.56343 ] } },
{ "type": "Feature", "properties": { "name": "beech" }, "geometry": { "type": "Point", "coordinates": [ -149.888462, 61.21884 ] } }
]
}